Received Message:KG5VBY  124/$GNGGA,014151.00,3509.85313,N,10632.14019,W,2,12,0.63,1724.7,M,-23.9,M,,0000*4F
Received Message:KG5VBY  125/$GNGGA,014201.00,3509.85361,N,10632.14061,W,2,12,0.70,1723.6,M,-23.9,M,,0000*47
Received Message:KG5VBY  126/$GNGGA,014211.00,3509.85381,N,10632.14062,W,2,12,0.70,1721.4,M,-23.9,M,,0000*4B
Received Message:KG5VBY  127/$GNGGA,014221.00,3509.85413,N,10632.14120,W,2,12,0.63,1722.1,M,-23.9,M,,0000*47
Received Message:KG5VBY  128/$GNGGA,014231.00,3509.85507,N,10632.14203,W,2,12,0.62,1724.0,M,-23.9,M,,0000*46
Received Message:KG5VBY  129/$GNGGA,014241.00,3509.85521,N,10632.14158,W,2,12,0.62,1723.0,M,-23.9,M,,0000*4F
Received Message:KG5VBY  130/$GNGGA,014251.00,3509.85523,N,10632.14107,W,2,12,0.60,1720.2,M,-23.9,M,,0000*45
Received Message:KG5VBY  131/$GNGGA,014301.00,3509.85520,N,10632.14055,W,2,12,0.60,1719.1,M,-23.9,M,,0000*4D
Received Message:KG5VBY  132/$GNGGA,014311.00,3509.85522,N,10632.14015,W,2,12,0.66,1716.2,M,-23.9,M,,0000*40
Received Message:KG5VBY  133/$GNGGA,014321.00,3509.85532,N,10632.14006,W,2,12,0.66,1714.0,M,-23.9,M,,0000*40
Received Message:KG5VBY  134/$GNGGA,014331.00,3509.85579,N,10632.14010,W,2,12,0.68,1711.9,M,-23.9,M,,0000*4B
Received Message:KG5VBY  135/$GNGGA,014341.00,3509.85558,N,10632.14028,W,2,12,0.66,1711.0,M,-23.9,M,,0000*43
Received Message:KG5VBY  136/$GNGGA,014351.00,3509.85535,N,10632.14061,W,2,12,0.66,1710.3,M,-23.9,M,,0000*46
Received Message:KG5VBY  137/$GNGGA,014401.00,3509.85513,N,10632.14060,W,2,12,0.69,1710.1,M,-23.9,M,,0000*4C
Received Message:KG5VBY  138/$GNGGA,014411.00,3509.85497,N,10632.14068,W,2,12,0.68,1709.1,M,-23.9,M,,0000*41
Received Message:KG5VBY  139/$GNGGA,014421.00,3509.85488,N,10632.14063,W,2,12,0.70,1709.2,M,-23.9,M,,0000*4D
Received Message:KG5VBY  140/$GNGGA,014431.00,3509.85483,N,10632.14041,W,2,12,0.63,1709.3,M,-23.9,M,,0000*44
Received Message:KG5VBY  141/$GNGGA,014441.00,3509.85466,N,10632.14047,W,2,12,0.61,1710.1,M,-23.9,M,,0000*46
Received Message:KG5VBY  142/$GNGGA,014451.00,3509.85483,N,10632.14086,W,2,12,0.63,1709.4,M,-23.9,M,,0000*4E
Received Message:KG5VBY  143/$GNGGA,014501.00,3509.85447,N,10632.14063,W,2,12,0.61,1711.4,M,-23.9,M,,0000*42
Received Message:KG5VBY  144/$GNGGA,014511.00,3509.85434,N,10632.14075,W,2,12,0.63,1712.5,M,-23.9,M,,0000*40
Received Message:KG5VBY  145/$GNGGA,014521.00,3509.85459,N,10632.14102,W,2,12,0.66,1712.2,M,-23.9,M,,0000*4B
Received Message:KG5VBY  146/$GNGGA,014531.00,3509.85487,N,10632.14135,W,2,12,0.68,1712.2,M,-23.9,M,,0000*43
Received Message:KG5VBY  147/$GNGGA,014541.00,3509.85522,N,10632.14132,W,2,12,0.66,1712.2,M,-23.9,M,,0000*43
Received Message:KG5VBY  148/$GNGGA,014551.00,3509.85542,N,10632.14157,W,2,12,0.68,1712.7,M,-23.9,M,,0000*4C
Received Message:KG5VBY  149/$GNGGA,014601.00,3509.85566,N,10632.14200,W,2,12,0.70,1715.2,M,-23.9,M,,0000*46
Received Message:KG5VBY  150/$GNGGA,014611.00,3509.85581,N,10632.14239,W,2,12,0.68,1717.6,M,-23.9,M,,0000*4B
Received Message:KG5VBY  151/$GNGGA,014621.00,3509.85583,N,10632.14257,W,2,12,0.66,1717.3,M,-23.9,M,,0000*49
Received Message:KG5VBY  152/$GNGGA,014631.00,3509.85580,N,10632.14300,W,2,12,0.61,1716.0,M,-23.9,M,,0000*4D
Received Message:KG5VBY  153/$GNGGA,014641.00,3509.85606,N,10632.14337,W,2,12,0.61,1721.3,M,-23.9,M,,0000*44
Received Message:KG5VBY  154/$GNGGA,014651.00,3509.85628,N,10632.14377,W,2,12,0.63,1721.2,M,-23.9,M,,0000*4E
Received Message:KG5VBY  155/$GNGGA,014701.00,3509.85617,N,10632.14409,W,2,12,0.61,1720.7,M,-23.9,M,,0000*4E
Received Message:KG5VBY  156/$GNGGA,014711.00,3509.85561,N,10632.14468,W,2,12,0.75,1718.5,M,-23.9,M,,0000*46
Received Message:KG5VBY  157/$GNGGA,014721.00,3509.85541,N,10632.14466,W,2,12,0.68,1717.8,M,-23.9,M,,0000*47
Received Message:KG5VBY  158/$GNGGA,014731.00,3509.85521,N,10632.14433,W,2,12,0.71,1716.6,M,-23.9,M,,0000*47
Received Message:KG5VBY  159/$GNGGA,014741.00,3509.85496,N,10632.14409,W,2,12,0.71,1715.0,M,-23.9,M,,0000*41
Received Message:KG5VBY  160/$GNGGA,014751.00,3509.85474,N,10632.14383,W,2,12,0.63,1713.6,M,-23.9,M,,0000*4A
Received Message:KG5VBY  161/$GNGGA,014801.00,3509.85473,N,10632.14354,W,2,12,0.61,1713.4,M,-23.9,M,,0000*4D
Received Message:KG5VBY  162/$GNGGA,014811.00,3509.85450,N,10632.14342,W,2,12,0.64,1714.7,M,-23.9,M,,0000*4B
Received Message:KG5VBY  163/$GNGGA,014821.00,3509.85448,N,10632.14302,W,2,12,0.68,1716.0,M,-23.9,M,,0000*4C
Received Message:KG5VBY  164/$GNGGA,014831.00,3509.85448,N,10632.14283,W,2,12,0.68,1717.3,M,-23.9,M,,0000*47
Received Message:KG5VBY  165/$GNGGA,014841.00,3509.85465,N,10632.14262,W,2,12,0.70,1718.2,M,-23.9,M,,0000*47
Received Message:KG5VBY  166/$GNGGA,014851.00,3509.85500,N,10632.14310,W,2,12,0.64,1719.0,M,-23.9,M,,0000*46
Received Message:KG5VBY  167/$GNGGA,014901.00,3509.85529,N,10632.14324,W,2,12,0.64,1720.2,M,-23.9,M,,0000*46
Received Message:KG5VBY  168/$GNGGA,014911.00,3509.85526,N,10632.14294,W,2,12,0.64,1722.1,M,-23.9,M,,0000*43
Received Message:KG5VBY  169/$GNGGA,014921.00,3509.85493,N,10632.14273,W,2,12,0.65,1721.6,M,-23.9,M,,0000*43
Received Message:KG5VBY  170/$GNGGA,014931.00,3509.85485,N,10632.14271,W,2,12,0.64,1719.8,M,-23.9,M,,0000*43
Received Message:KG5VBY  171/$GNGGA,014941.00,3509.85500,N,10632.14311,W,2,12,0.64,1718.0,M,-23.9,M,,0000*46
Received Message:KG5VBY  172/$GNGGA,014951.00,3509.85496,N,10632.14313,W,2,12,0.64,1716.5,M,-23.9,M,,0000*40
Received Message:KG5VBY  173/$GNGGA,015002.00,3509.85442,N,10632.14310,W,2,12,0.63,1714.0,M,-23.9,M,,0000*44
Received Message:KG5VBY  174/$GNGGA,015012.00,3509.85426,N,10632.14305,W,2,12,0.63,1714.2,M,-23.9,M,,0000*41
Received Message:KG5VBY  175/$GNGGA,015022.00,3509.85455,N,10632.14395,W,2,12,0.61,1716.7,M,-23.9,M,,0000*4A
Received Message:KG5VBY  0/$GNGGA,015127.00,3509.85564,N,10632.14390,W,2,12,0.61,1723.3,M,-23.9,M,,0000*4A
Received Message:KG5VBY  1/$GNGGA,015137.00,3509.85578,N,10632.14382,W,2,12,0.61,1724.6,M,-23.9,M,,0000*47
Received Message:KG5VBY  2/$GNGGA,015147.00,3509.85548,N,10632.14390,W,2,12,0.61,1723.6,M,-23.9,M,,0000*47
Received Message:KG5VBY  3/$GNGGA,015157.00,3509.85486,N,10632.14353,W,2,12,0.61,1722.0,M,-23.9,M,,0000*4D
Received Message:KG5VBY  4/$GNGGA,015207.00,3509.85450,N,10632.14355,W,2,12,0.61,1722.6,M,-23.9,M,,0000*40
Received Message:KG5VBY  5/$GNGGA,015217.00,3509.85422,N,10632.14329,W,2,12,0.61,1720.7,M,-23.9,M,,0000*4C
Received Message:KG5VBY  6/$GNGGA,015227.00,3509.85432,N,10632.14307,W,2,12,0.61,1717.5,M,-23.9,M,,0000*44
Received Message:KG5VBY  7/$GNGGA,015237.00,3509.85447,N,10632.14303,W,2,12,0.61,1718.6,M,-23.9,M,,0000*4F
Received Message:KG5VBY  8/$GNGGA,015247.00,3509.85424,N,10632.14298,W,2,12,0.61,1717.8,M,-23.9,M,,0000*4F
Received Message:KG5VBY  9/$GNGGA,015257.00,3509.85405,N,10632.14284,W,2,12,0.63,1716.6,M,-23.9,M,,0000*4D
Received Message:KG5VBY  10/$GNGGA,015307.00,3509.85385,N,10632.14265,W,2,12,0.65,1715.3,M,-23.9,M,,0000*49
Received Message:KG5VBY  11/$GNGGA,015317.00,3509.85371,N,10632.14230,W,2,12,0.63,1714.6,M,-23.9,M,,0000*41
Received Message:KG5VBY  12/$GNGGA,015327.00,3509.85365,N,10632.14208,W,2,12,0.63,1714.0,M,-23.9,M,,0000*4A
Received Message:KG5VBY  13/$GNGGA,015337.00,3509.85362,N,10632.14185,W,2,12,0.63,1712.7,M,-23.9,M,,0000*4B
Received Message:KG5VBY  14/$GNGGA,015347.00,3509.85357,N,10632.14176,W,2,12,0.65,1710.8,M,-23.9,M,,0000*4D
Received Message:KG5VBY  15/$GNGGA,015357.00,3509.85358,N,10632.14194,W,2,12,0.65,1710.2,M,-23.9,M,,0000*45
Received Message:KG5VBY  16/$GNGGA,015407.00,3509.85345,N,10632.14207,W,2,12,0.63,1709.4,M,-23.9,M,,0000*4A
Received Message:KG5VBY  17/$GNGGA,015417.00,3509.85358,N,10632.14205,W,2,12,0.63,1709.8,M,-23.9,M,,0000*49
Received Message:KG5VBY  18/$GNGGA,015427.00,3509.85366,N,10632.14203,W,2,12,0.65,1711.4,M,-23.9,M,,0000*42
Received Message:KG5VBY  19/$GNGGA,015437.00,3509.85386,N,10632.14219,W,2,12,0.63,1713.9,M,-23.9,M,,0000*4F
Received Message:KG5VBY  20/$GNGGA,015447.00,3509.85404,N,10632.14233,W,2,12,0.65,1716.5,M,-23.9,M,,0000*42
Received Message:KG5VBY  21/$GNGGA,015457.00,3509.85364,N,10632.14227,W,2,12,0.65,1717.6,M,-23.9,M,,0000*45
Received Message:KG5VBY  22/$GNGGA,015507.00,3509.85369,N,10632.14285,W,2,12,0.63,1716.4,M,-23.9,M,,0000*41
Received Message:KG5VBY  23/$GNGGA,015517.00,3509.85274,N,10632.14312,W,2,12,0.63,1716.9,M,-23.9,M,,0000*4F
Received Message:KG5VBY  24/$GNGGA,015527.00,3509.85281,N,10632.14323,W,2,12,0.65,1717.5,M,-23.9,M,,0000*4F
Received Message:KG5VBY  25/$GNGGA,015537.00,3509.85270,N,10632.14350,W,2,12,0.65,1717.9,M,-23.9,M,,0000*48
Received Message:KG5VBY  26/$GNGGA,015547.00,3509.85248,N,10632.14337,W,2,12,0.65,1718.3,M,-23.9,M,,0000*40
Received Message:KG5VBY  27/$GNGGA,015557.00,3509.85240,N,10632.14314,W,2,12,0.68,1719.2,M,-23.9,M,,0000*45
Received Message:KG5VBY  28/$GNGGA,015607.00,3509.85246,N,10632.14329,W,2,12,0.62,1719.5,M,-23.9,M,,0000*46
Received Message:KG5VBY  29/$GNGGA,015617.00,3509.85276,N,10632.14407,W,2,12,0.62,1721.6,M,-23.9,M,,0000*47
Received Message:KG5VBY  30/$GNGGA,015627.00,3509.85280,N,10632.14403,W,2,12,0.62,1721.5,M,-23.9,M,,0000*4A
Received Message:KG5VBY  31/$GNGGA,015637.00,3509.85346,N,10632.14537,W,2,12,0.62,1722.6,M,-23.9,M,,0000*46
Received Message:KG5VBY  32/$GNGGA,015647.00,3509.85384,N,10632.14682,W,2,12,0.64,1724.7,M,-23.9,M,,0000*43
Received Message:KG5VBY  33/$GNGGA,015657.00,3509.85384,N,10632.14686,W,2,12,0.62,1724.3,M,-23.9,M,,0000*44
Received Message:KG5VBY  34/$GNGGA,015707.00,3509.85351,N,10632.14589,W,2,12,0.62,1724.1,M,-23.9,M,,0000*46
Received Message:KG5VBY  35/$GNGGA,015717.00,3509.85328,N,10632.14510,W,2,12,0.62,1723.2,M,-23.9,M,,0000*4D
Received Message:KG5VBY  36/$GNGGA,015727.00,3509.85290,N,10632.14397,W,2,12,0.67,1722.5,M,-23.9,M,,0000*46
Received Message:KG5VBY  37/$GNGGA,015737.00,3509.85292,N,10632.14411,W,2,12,0.66,1723.8,M,-23.9,M,,0000*41
Received Message:KG5VBY  38/$GNGGA,015747.00,3509.85305,N,10632.14426,W,2,12,0.64,1722.8,M,-23.9,M,,0000*4E
Received Message:KG5VBY  39/$GNGGA,015757.00,3509.85311,N,10632.14376,W,2,12,0.66,1721.4,M,-23.9,M,,0000*45
Received Message:KG5VBY  40/$GNGGA,015807.00,3509.85307,N,10632.14338,W,2,12,0.64,1721.0,M,-23.9,M,,0000*44
Received Message:KG5VBY  41/$GNGGA,015817.00,3509.85320,N,10632.14315,W,2,12,0.64,1722.3,M,-23.9,M,,0000*4F
Received Message:KG5VBY  42/$GNGGA,015827.00,3509.85319,N,10632.14274,W,2,12,0.64,1720.6,M,-23.9,M,,0000*47
Received Message:KG5VBY  43/$GNGGA,015837.00,3509.85322,N,10632.14287,W,2,12,0.64,1719.7,M,-23.9,M,,0000*49
Received Message:KG5VBY  44/$GNGGA,015847.00,3509.85324,N,10632.14285,W,2,12,0.62,1721.8,M,-23.9,M,,0000*48
Received Message:KG5VBY  45/$GNGGA,015857.00,3509.85286,N,10632.14250,W,2,12,0.68,1722.6,M,-23.9,M,,0000*4F
Received Message:KG5VBY  46/$GNGGA,015907.00,3509.85307,N,10632.14240,W,2,12,0.62,1722.3,M,-23.9,M,,0000*4D
Received Message:KG5VBY  47/$GNGGA,015917.00,3509.85315,N,10632.14229,W,2,12,0.62,1723.4,M,-23.9,M,,0000*46
Received Message:KG5VBY  48/$GNGGA,015927.00,3509.85315,N,10632.14229,W,2,12,0.62,1725.0,M,-23.9,M,,0000*47
Received Message:KG5VBY  49/$GNGGA,015937.00,3509.85327,N,10632.14269,W,2,12,0.63,1726.8,M,-23.9,M,,0000*49
Received Message:KG5VBY  50/$GNGGA,015947.00,3509.85341,N,10632.14242,W,2,12,0.62,1727.1,M,-23.9,M,,0000*4E
Received Message:KG5VBY  51/$GNGGA,015957.00,3509.85352,N,10632.14226,W,2,12,0.66,1727.6,M,-23.9,M,,0000*4C
Received Message:KG5VBY  52/$GNGGA,020007.00,3509.85380,N,10632.14231,W,2,12,0.62,1729.0,M,-23.9,M,,0000*43
Received Message:KG5VBY  53/$GNGGA,020017.00,3509.85412,N,10632.14237,W,2,12,0.66,1730.3,M,-23.9,M,,0000*47
Received Message:KG5VBY  54/$GNGGA,020027.00,3509.85425,N,10632.14231,W,2,12,0.64,1730.3,M,-23.9,M,,0000*44
Received Message:KG5VBY  55/$GNGGA,020037.00,3509.85481,N,10632.14298,W,2,12,0.62,1731.4,M,-23.9,M,,0000*48
Received Message:KG5VBY  56/$GNGGA,020047.00,3509.85524,N,10632.14284,W,2,12,0.62,1733.3,M,-23.9,M,,0000*49
Received Message:KG5VBY  57/$GNGGA,020057.00,3509.85523,N,10632.14281,W,2,12,0.62,1733.6,M,-23.9,M,,0000*4F
Received Message:KG5VBY  58/$GNGGA,020107.00,3509.85537,N,10632.14299,W,2,12,0.62,1735.3,M,-23.9,M,,0000*44
Received Message:KG5VBY  59/$GNGGA,020117.00,3509.85567,N,10632.14355,W,2,12,0.62,1734.6,M,-23.9,M,,0000*45
Received Message:KG5VBY  60/$GNGGA,020127.00,3509.85578,N,10632.14388,W,2,12,0.62,1734.2,M,-23.9,M,,0000*4C
Received Message:KG5VBY  61/$GNGGA,020137.00,3509.85568,N,10632.14389,W,2,12,0.64,1733.4,M,-23.9,M,,0000*4A
Received Message:KG5VBY  62/$GNGGA,020147.00,3509.85564,N,10632.14365,W,2,12,0.66,1734.4,M,-23.9,M,,0000*46
Received Message:KG5VBY  63/$GNGGA,020157.00,3509.85538,N,10632.14323,W,2,12,0.64,1733.5,M,-23.9,M,,0000*48
Received Message:KG5VBY  64/$GNGGA,020207.00,3509.85518,N,10632.14270,W,2,12,0.68,1731.9,M,-23.9,M,,0000*49
Received Message:KG5VBY  65/$GNGGA,020217.00,3509.85509,N,10632.14228,W,2,12,0.67,1730.6,M,-23.9,M,,0000*44
Received Message:KG5VBY  66/$GNGGA,020227.00,3509.85525,N,10632.14200,W,2,12,0.72,1730.2,M,-23.9,M,,0000*43
Received Message:KG5VBY  67/$GNGGA,020237.00,3509.85510,N,10632.14248,W,2,12,0.67,1728.9,M,-23.9,M,,0000*4E
Received Message:KG5VBY  68/$GNGGA,020247.00,3509.85512,N,10632.14253,W,2,12,0.67,1730.0,M,-23.9,M,,0000*41
Received Message:KG5VBY  69/$GNGGA,020257.00,3509.85503,N,10632.14279,W,2,12,0.71,1728.4,M,-23.9,M,,0000*42
Received Message:KG5VBY  70/$GNGGA,020307.00,3509.85472,N,10632.14281,W,2,12,0.67,1726.5,M,-23.9,M,,0000*4E
Received Message:KG5VBY  71/$GNGGA,020317.00,3509.85476,N,10632.14289,W,2,12,0.67,1725.2,M,-23.9,M,,0000*47
Received Message:KG5VBY  72/$GNGGA,020327.00,3509.85457,N,10632.14313,W,2,12,0.67,1724.8,M,-23.9,M,,0000*4E
Received Message:KG5VBY  73/$GNGGA,020337.00,3509.85425,N,10632.14247,W,2,12,0.67,1723.2,M,-23.9,M,,0000*47
Received Message:KG5VBY  74/$GNGGA,020347.00,3509.85365,N,10632.14205,W,2,12,0.67,1722.8,M,-23.9,M,,0000*4E
Received Message:KG5VBY  75/$GNGGA,020357.00,3509.85346,N,10632.14192,W,2,12,0.72,1723.2,M,-23.9,M,,0000*4C
Received Message:KG5VBY  76/$GNGGA,020408.00,3509.85295,N,10632.14202,W,2,12,0.67,1722.2,M,-23.9,M,,0000*41
Received Message:KG5VBY  77/$GNGGA,020418.00,3509.85280,N,10632.14217,W,2,12,0.69,1720.9,M,-23.9,M,,0000*47
Received Message:KG5VBY  78/$GNGGA,020428.00,3509.85235,N,10632.14241,W,2,12,0.71,1719.0,M,-23.9,M,,0000*43
Received Message:KG5VBY  79/$GNGGA,020438.00,3509.85203,N,10632.14173,W,2,12,0.67,1718.1,M,-23.9,M,,0000*42
Received Message:KG5VBY  80/$GNGGA,020448.00,3509.85200,N,10632.14186,W,2,12,0.71,1717.8,M,-23.9,M,,0000*4D
Received Message:KG5VBY  81/$GNGGA,020458.00,3509.85232,N,10632.14194,W,2,12,0.74,1717.0,M,-23.9,M,,0000*43
Received Message:KG5VBY  82/$GNGGA,020508.00,3509.85250,N,10632.14186,W,2,12,0.72,1717.0,M,-23.9,M,,0000*46
Received Message:KG5VBY  83/$GNGGA,020518.00,3509.85242,N,10632.14167,W,2,12,0.64,1716.9,M,-23.9,M,,0000*44
Received Message:KG5VBY  84/$GNGGA,020528.00,3509.85234,N,10632.14147,W,2,12,0.67,1716.0,M,-23.9,M,,0000*4E
Received Message:KG5VBY  85/$GNGGA,020538.00,3509.85238,N,10632.14156,W,2,12,0.67,1715.8,M,-23.9,M,,0000*48
Received Message:KG5VBY  86/$GNGGA,020548.00,3509.85255,N,10632.14182,W,2,12,0.67,1715.0,M,-23.9,M,,0000*45
Received Message:KG5VBY  87/$GNGGA,020558.00,3509.85261,N,10632.14185,W,2,12,0.67,1714.6,M,-23.9,M,,0000*43
Received Message:KG5VBY  88/$GNGGA,020608.00,3509.85250,N,10632.14199,W,2,12,0.64,1714.3,M,-23.9,M,,0000*4C
Received Message:KG5VBY  89/$GNGGA,020618.00,3509.85234,N,10632.14222,W,2,12,0.64,1716.8,M,-23.9,M,,0000*45
Received Message:KG5VBY  90/$GNGGA,020628.00,3509.85257,N,10632.14201,W,2,12,0.64,1717.1,M,-23.9,M,,0000*4A
Received Message:KG5VBY  3783/$GNGGA,122235.00,3509.85357,N,10632.14101,W,2,12,0.76,1717.1,M,-23.9,M,,0000*40
Received Message:KG5VBY  3784/$GNGGA,122245.00,3509.85389,N,10632.14113,W,2,12,0.80,1717.3,M,-23.9,M,,0000*4C
Received Message:KG5VBY  3785/$GNGGA,122255.00,3509.85399,N,10632.14119,W,2,12,0.73,1717.2,M,-23.9,M,,0000*4B
Received Message:KG5VBY  3786/$GNGGA,122305.00,3509.85435,N,10632.14161,W,2,12,0.73,1717.0,M,-23.9,M,,0000*43
Received Message:KG5VBY  3787/$GNGGA,122315.00,3509.85472,N,10632.14190,W,2,12,0.76,1717.4,M,-23.9,M,,0000*4E
Received Message:KG5VBY  3788/$GNGGA,122325.00,3509.85481,N,10632.14206,W,2,12,0.76,1718.0,M,-23.9,M,,0000*46
Received Message:KG5VBY  3789/$GNGGA,122335.00,3509.85463,N,10632.14164,W,2,12,0.76,1717.9,M,-23.9,M,,0000*4A
Received Message:KG5VBY  3790/$GNGGA,122345.00,3509.85481,N,10632.14152,W,2,12,0.73,1717.4,M,-23.9,M,,0000*4C
Received Message:KG5VBY  3791/$GNGGA,122355.00,3509.85481,N,10632.14119,W,2,12,0.74,1716.9,M,-23.9,M,,0000*49
Received Message:KG5VBY  3792/$GNGGA,122405.00,3509.85489,N,10632.14078,W,2,12,0.72,1716.6,M,-23.9,M,,0000*4C
Received Message:KG5VBY  3793/$GNGGA,122415.00,3509.85509,N,10632.14067,W,2,12,0.74,1716.1,M,-23.9,M,,0000*4B
Received Message:KG5VBY  3794/$GNGGA,122425.00,3509.85533,N,10632.14049,W,2,12,0.72,1715.5,M,-23.9,M,,0000*4C
Received Message:KG5VBY  3795/$GNGGA,122435.00,3509.85567,N,10632.14005,W,2,12,0.72,1714.9,M,-23.9,M,,0000*49
Received Message:KG5VBY  3796/$GNGGA,122445.00,3509.85638,N,10632.14000,W,2,12,0.72,1715.8,M,-23.9,M,,0000*42
Received Message:KG5VBY  3797/$GNGGA,122455.00,3509.85649,N,10632.14007,W,2,12,0.74,1715.8,M,-23.9,M,,0000*44
Received Message:KG5VBY  3798/$GNGGA,122505.00,3509.85651,N,10632.14024,W,2,12,0.74,1715.5,M,-23.9,M,,0000*45
Received Message:KG5VBY  3799/$GNGGA,122515.00,3509.85645,N,10632.14043,W,2,12,0.76,1714.3,M,-23.9,M,,0000*45
Received Message:KG5VBY  3800/$GNGGA,122525.00,3509.85620,N,10632.14077,W,2,12,0.76,1713.9,M,-23.9,M,,0000*4F
Received Message:KG5VBY  3801/$GNGGA,122535.00,3509.85581,N,10632.14107,W,2,12,0.73,1713.7,M,-23.9,M,,0000*4B
Received Message:KG5VBY  3802/$GNGGA,122545.00,3509.85548,N,10632.14116,W,2,12,0.75,1714.4,M,-23.9,M,,0000*4B
Received Message:KG5VBY  3803/$GNGGA,122555.00,3509.85530,N,10632.14123,W,2,12,0.73,1714.3,M,-23.9,M,,0000*42
Received Message:KG5VBY  3804/$GNGGA,122605.00,3509.85504,N,10632.14134,W,2,12,0.73,1715.0,M,-23.9,M,,0000*47
Received Message:KG5VBY  3805/$GNGGA,122615.00,3509.85468,N,10632.14162,W,2,12,0.73,1716.9,M,-23.9,M,,0000*44
Received Message:KG5VBY  3806/$GNGGA,122625.00,3509.85445,N,10632.14184,W,2,12,0.73,1717.0,M,-23.9,M,,0000*48
Received Message:KG5VBY  3807/$GNGGA,122635.00,3509.85436,N,10632.14183,W,2,12,0.73,1718.1,M,-23.9,M,,0000*44
Received Message:KG5VBY  3808/$GNGGA,122645.00,3509.85389,N,10632.14094,W,2,12,0.73,1718.6,M,-23.9,M,,0000*40
Received Message:KG5VBY  3809/$GNGGA,122655.00,3509.85357,N,10632.14040,W,2,12,0.73,1719.6,M,-23.9,M,,0000*4A
Received Message:KG5VBY  3810/$GNGGA,122705.00,3509.85332,N,10632.14055,W,2,12,0.75,1721.4,M,-23.9,M,,0000*46
Received Message:KG5VBY  3811/$GNGGA,122715.00,3509.85307,N,10632.14022,W,2,12,0.73,1722.0,M,-23.9,M,,0000*40
Received Message:KG5VBY  3812/$GNGGA,122725.00,3509.85301,N,10632.13999,W,2,12,0.72,1722.8,M,-23.9,M,,0000*42
Received Message:KG5VBY  3813/$GNGGA,122735.00,3509.85323,N,10632.13999,W,2,12,0.74,1723.3,M,-23.9,M,,0000*4F
Received Message:KG5VBY  3814/$GNGGA,122745.00,3509.85355,N,10632.13962,W,2,12,0.72,1723.2,M,-23.9,M,,0000*4A
Received Message:KG5VBY  3815/$GNGGA,122755.00,3509.85360,N,10632.13981,W,2,12,0.74,1722.9,M,-23.9,M,,0000*4C
Received Message:KG5VBY  3816/$GNGGA,122805.00,3509.85394,N,10632.14012,W,2,12,0.74,1721.9,M,-23.9,M,,0000*4A
Received Message:KG5VBY  3817/$GNGGA,122815.00,3509.85423,N,10632.14031,W,2,12,0.74,1721.1,M,-23.9,M,,0000*49
Received Message:KG5VBY  3818/$GNGGA,122825.00,3509.85456,N,10632.14050,W,2,12,0.74,1720.5,M,-23.9,M,,0000*4A
Received Message:KG5VBY  3819/$GNGGA,122835.00,3509.85454,N,10632.14067,W,2,12,0.77,1720.5,M,-23.9,M,,0000*4E
Received Message:KG5VBY  5853/$GNGGA,180756.00,3509.84933,N,10632.14127,W,2,12,0.64,1714.5,M,-23.9,M,,0000*41
Received Message:KG5VBY  5860/$GNGGA,180906.00,3509.84930,N,10632.14105,W,1,12,0.66,1717.3,M,-23.9,M,,*4D
Received Message:KG5VBY  5861/$GNGGA,180916.00,3509.84884,N,10632.14136,W,1,12,0.66,1717.2,M,-23.9,M,,*43
Received Message:KG5VBY  5862/$GNGGA,180926.00,3509.84821,N,10632.14103,W,1,12,0.77,1715.1,M,-23.9,M,,*48
Received Message:KG5VBY  5863/$GNGGA,180936.00,3509.84822,N,10632.14063,W,1,12,0.70,1713.8,M,-23.9,M,,*45
Received Message:KG5VBY  5864/$GNGGA,180946.00,3509.84783,N,10632.14023,W,2,12,0.68,1713.5,M,-23.9,M,,0000*45
Received Message:KG5VBY  5865/$GNGGA,180956.00,3509.84804,N,10632.14022,W,2,12,0.64,1714.7,M,-23.9,M,,0000*4C
Received Message:KG5VBY  5866/$GNGGA,181006.00,3509.84824,N,10632.14026,W,2,12,0.64,1714.0,M,-23.9,M,,0000*40
Received Message:KG5VBY  5867/$GNGGA,181016.00,3509.84816,N,10632.14019,W,2,12,0.66,1714.1,M,-23.9,M,,0000*4F
Received Message:KG5VBY  5868/$GNGGA,181026.00,3509.84739,N,10632.14016,W,2,12,0.66,1714.2,M,-23.9,M,,0000*42
Received Message:KG5VBY  5869/$GNGGA,181036.00,3509.84724,N,10632.13968,W,2,12,0.65,1713.5,M,-23.9,M,,0000*4B
Received Message:KG5VBY  5870/$GNGGA,181046.00,3509.84746,N,10632.13935,W,2,12,0.66,1713.4,M,-23.9,M,,0000*42
Received Message:KG5VBY  5871/$GNGGA,181056.00,3509.84767,N,10632.13971,W,2,12,0.65,1713.8,M,-23.9,M,,0000*4F
Received Message:KG5VBY  5872/$GNGGA,181106.00,3509.84797,N,10632.13988,W,1,12,0.65,1714.6,M,-23.9,M,,*48
Received Message:KG5VBY  5873/$GNGGA,181116.00,3509.84791,N,10632.13977,W,1,12,0.64,1716.2,M,-23.9,M,,*48
Received Message:KG5VBY  5874/$GNGGA,181126.00,3509.84792,N,10632.13965,W,1,12,0.72,1717.0,M,-23.9,M,,*4F
Received Message:KG5VBY  5875/$GNGGA,181136.00,3509.84808,N,10632.13963,W,1,12,0.72,1717.7,M,-23.9,M,,*43
Received Message:KG5VBY  5876/$GNGGA,181146.00,3509.84836,N,10632.13959,W,1,12,0.76,1717.1,M,-23.9,M,,*42
Received Message:KG5VBY  5877/$GNGGA,181156.00,3509.84863,N,10632.13971,W,1,12,0.66,1716.5,M,-23.9,M,,*4D
Received Message:KG5VBY  5878/$GNGGA,181206.00,3509.84869,N,10632.13973,W,1,12,0.73,1716.2,M,-23.9,M,,*40
Received Message:KG5VBY  5879/$GNGGA,181216.00,3509.84866,N,10632.14010,W,1,12,0.64,1715.5,M,-23.9,M,,*47
Received Message:KG5VBY  5880/$GNGGA,181226.00,3509.84841,N,10632.14021,W,1,12,0.68,1714.6,M,-23.9,M,,*4D
Received Message:KG5VBY  5881/$GNGGA,181236.00,3509.84838,N,10632.14036,W,1,12,0.66,1714.5,M,-23.9,M,,*49
Received Message:KG5VBY  5882/$GNGGA,181246.00,3509.84833,N,10632.14035,W,1,12,0.64,1714.3,M,-23.9,M,,*42
Received Message:KG5VBY  5883/$GNGGA,181256.00,3509.84808,N,10632.14034,W,1,12,0.66,1714.7,M,-23.9,M,,*4C
Received Message:KG5VBY  5884/$GNGGA,181306.00,3509.84803,N,10632.14054,W,1,12,0.66,1715.0,M,-23.9,M,,*43
Received Message:KG5VBY  5885/$GNGGA,181316.00,3509.84804,N,10632.14074,W,1,12,0.66,1715.3,M,-23.9,M,,*44
Received Message:KG5VBY  5886/$GNGGA,181326.00,3509.84815,N,10632.14086,W,1,12,0.66,1715.7,M,-23.9,M,,*4E
Received Message:KG5VBY  5887/$GNGGA,181336.00,3509.84807,N,10632.14076,W,1,12,0.64,1717.2,M,-23.9,M,,*46
Received Message:KG5VBY  5888/$GNGGA,181346.00,3509.84819,N,10632.14091,W,1,12,0.64,1718.0,M,-23.9,M,,*4A
Received Message:KG5VBY  5889/$GNGGA,181356.00,3509.84849,N,10632.14106,W,1,12,0.71,1717.9,M,-23.9,M,,*43
Received Message:KG5VBY  5890/$GNGGA,181406.00,3509.84867,N,10632.14131,W,1,12,0.70,1717.4,M,-23.9,M,,*45
Received Message:KG5VBY  5891/$GNGGA,181416.00,3509.84878,N,10632.14117,W,1,12,0.66,1717.7,M,-23.9,M,,*4A
Received Message:KG5VBY  5892/$GNGGA,181426.00,3509.84879,N,10632.14122,W,1,12,0.66,1717.8,M,-23.9,M,,*41
Received Message:KG5VBY  5893/$GNGGA,181436.00,3509.84863,N,10632.14110,W,1,12,0.68,1718.6,M,-23.9,M,,*45
Received Message:KG5VBY  5894/$GNGGA,181446.00,3509.84844,N,10632.14099,W,1,12,0.70,1719.5,M,-23.9,M,,*4C
Received Message:KG5VBY  5895/$GNGGA,181456.00,3509.84844,N,10632.14100,W,1,12,0.70,1719.7,M,-23.9,M,,*4E
Received Message:KG5VBY  5896/$GNGGA,181506.00,3509.84837,N,10632.14128,W,1,12,0.70,1719.3,M,-23.9,M,,*40
Received Message:KG5VBY  5897/$GNGGA,181516.00,3509.84835,N,10632.14141,W,1,12,0.70,1719.0,M,-23.9,M,,*4F
Received Message:KG5VBY  5898/$GNGGA,181526.00,3509.84829,N,10632.14150,W,1,12,0.70,1719.3,M,-23.9,M,,*42
Received Message:KG5VBY  5899/$GNGGA,181536.00,3509.84818,N,10632.14142,W,1,12,0.70,1719.5,M,-23.9,M,,*44
Received Message:KG5VBY  5900/$GNGGA,181546.00,3509.84807,N,10632.14125,W,1,12,0.70,1719.1,M,-23.9,M,,*48
Received Message:KG5VBY  5901/$GNGGA,181556.00,3509.84794,N,10632.14136,W,1,12,0.66,1718.2,M,-23.9,M,,*4B
Received Message:KG5VBY  5902/$GNGGA,181606.00,3509.84764,N,10632.14138,W,1,12,0.64,1718.0,M,-23.9,M,,*4C
Received Message:KG5VBY  5903/$GNGGA,181616.00,3509.84745,N,10632.14130,W,1,12,0.64,1718.5,M,-23.9,M,,*43
Received Message:KG5VBY  5904/$GNGGA,181626.00,3509.84745,N,10632.14123,W,1,12,0.64,1718.7,M,-23.9,M,,*40
Received Message:KG5VBY  5905/$GNGGA,181636.00,3509.84746,N,10632.14107,W,1,12,0.64,1718.7,M,-23.9,M,,*44
Received Message:KG5VBY  5906/$GNGGA,181646.00,3509.84742,N,10632.14123,W,1,12,0.64,1718.6,M,-23.9,M,,*40
Received Message:KG5VBY  5907/$GNGGA,181656.00,3509.84738,N,10632.14150,W,1,12,0.69,1718.5,M,-23.9,M,,*46
Received Message:KG5VBY  5908/$GNGGA,181706.00,3509.84731,N,10632.14165,W,1,12,0.68,1719.0,M,-23.9,M,,*48
Received Message:KG5VBY  5909/$GNGGA,181716.00,3509.84718,N,10632.14169,W,1,12,0.69,1719.6,M,-23.9,M,,*49
Received Message:KG5VBY  5910/$GNGGA,181726.00,3509.84711,N,10632.14149,W,1,12,0.65,1719.7,M,-23.9,M,,*4C
Received Message:KG5VBY  5911/$GNGGA,181736.00,3509.84705,N,10632.14140,W,2,12,0.63,1719.8,M,-23.9,M,,0000*4B
Received Message:KG5VBY  5912/$GNGGA,181746.00,3509.84710,N,10632.14115,W,2,12,0.69,1719.3,M,-23.9,M,,0000*49
Received Message:KG5VBY  5913/$GNGGA,181756.00,3509.84711,N,10632.14097,W,2,12,0.63,1718.1,M,-23.9,M,,0000*4B
Received Message:KG5VBY  5914/$GNGGA,181806.00,3509.84717,N,10632.14097,W,2,12,0.64,1717.2,M,-23.9,M,,0000*4C
Received Message:KG5VBY  5915/$GNGGA,181816.00,3509.84699,N,10632.14106,W,2,12,0.66,1716.8,M,-23.9,M,,0000*4A
Received Message:KG5VBY  5916/$GNGGA,181826.00,3509.84667,N,10632.14149,W,2,12,0.63,1715.6,M,-23.9,M,,0000*4B
Received Message:KG5VBY  5917/$GNGGA,181836.00,3509.84635,N,10632.14181,W,2,12,0.64,1715.1,M,-23.9,M,,0000*49
Received Message:KG5VBY  5918/$GNGGA,181846.00,3509.84636,N,10632.14166,W,2,12,0.68,1715.3,M,-23.9,M,,0000*4A
Received Message:KG5VBY  5919/$GNGGA,181856.00,3509.84654,N,10632.14135,W,2,12,0.71,1715.2,M,-23.9,M,,0000*40
Received Message:KG5VBY  5920/$GNGGA,181906.00,3509.84684,N,10632.14118,W,2,12,0.68,1715.1,M,-23.9,M,,0000*4D
Received Message:KG5VBY  5921/$GNGGA,181916.00,3509.84695,N,10632.14121,W,2,12,0.75,1714.5,M,-23.9,M,,0000*4F
Received Message:KG5VBY  5922/$GNGGA,181926.00,3509.84731,N,10632.14095,W,2,12,0.69,1715.5,M,-23.9,M,,0000*41
Received Message:KG5VBY  5923/$GNGGA,181936.00,3509.84753,N,10632.14064,W,2,12,0.72,1716.3,M,-23.9,M,,0000*45
Received Message:KG5VBY  5924/$GNGGA,181946.00,3509.84810,N,10632.14014,W,2,12,0.65,1717.3,M,-23.9,M,,0000*4A
Received Message:KG5VBY  5925/$GNGGA,181956.00,3509.84844,N,10632.13994,W,2,12,0.67,1717.7,M,-23.9,M,,0000*4A
Received Message:KG5VBY  5926/$GNGGA,182006.00,3509.84877,N,10632.13984,W,2,12,0.68,1718.2,M,-23.9,M,,0000*41
Received Message:KG5VBY  5927/$GNGGA,182017.00,3509.84895,N,10632.13992,W,2,12,0.68,1717.6,M,-23.9,M,,0000*41
Received Message:KG5VBY  5928/$GNGGA,182027.00,3509.84886,N,10632.14023,W,2,12,0.68,1716.8,M,-23.9,M,,0000*4B
Received Message:KG5VBY  5929/$GNGGA,182037.00,3509.84865,N,10632.14053,W,2,12,0.68,1716.2,M,-23.9,M,,0000*4A
Received Message:KG5VBY  5930/$GNGGA,182047.00,3509.84847,N,10632.14074,W,2,12,0.68,1715.9,M,-23.9,M,,0000*40
Received Message:KG5VBY  5931/$GNGGA,182057.00,3509.84860,N,10632.14094,W,2,12,0.68,1715.0,M,-23.9,M,,0000*43
Received Message:KG5VBY  5932/$GNGGA,182107.00,3509.84879,N,10632.14097,W,2,12,0.70,1713.8,M,-23.9,M,,0000*4B
Received Message:KG5VBY  5933/$GNGGA,182117.00,3509.84862,N,10632.14110,W,2,12,0.68,1713.6,M,-23.9,M,,0000*49
Received Message:KG5VBY  5934/$GNGGA,182127.00,3509.84853,N,10632.14131,W,2,12,0.69,1714.2,M,-23.9,M,,0000*49
Received Message:KG5VBY  5935/$GNGGA,182137.00,3509.84837,N,10632.14124,W,2,12,0.68,1714.1,M,-23.9,M,,0000*4C
Received Message:KG5VBY  5936/$GNGGA,182147.00,3509.84812,N,10632.14102,W,2,12,0.70,1713.4,M,-23.9,M,,0000*43
Received Message:KG5VBY  5937/$GNGGA,182157.00,3509.84783,N,10632.14122,W,2,12,0.68,1712.7,M,-23.9,M,,0000*4C
Received Message:KG5VBY  5938/$GNGGA,182207.00,3509.84768,N,10632.14121,W,2,12,0.65,1712.4,M,-23.9,M,,0000*42
Received Message:KG5VBY  5939/$GNGGA,182217.00,3509.84782,N,10632.14111,W,2,12,0.68,1712.1,M,-23.9,M,,0000*4C
Received Message:KG5VBY  5940/$GNGGA,182227.00,3509.84784,N,10632.14103,W,2,12,0.68,1713.9,M,-23.9,M,,0000*43
Received Message:KG5VBY  5941/$GNGGA,182237.00,3509.84786,N,10632.14079,W,2,12,0.65,1714.8,M,-23.9,M,,0000*47
Received Message:KG5VBY  5942/$GNGGA,182247.00,3509.84799,N,10632.14080,W,2,12,0.65,1714.9,M,-23.9,M,,0000*49
Received Message:KG5VBY  5943/$GNGGA,182257.00,3509.84827,N,10632.14078,W,2,12,0.68,1715.2,M,-23.9,M,,0000*42
Received Message:KG5VBY  5944/$GNGGA,182307.00,3509.84833,N,10632.14073,W,2,12,0.63,1715.5,M,-23.9,M,,0000*44
Received Message:KG5VBY  5945/$GNGGA,182317.00,3509.84830,N,10632.14084,W,2,12,0.68,1715.9,M,-23.9,M,,0000*49
Received Message:KG5VBY  5946/$GNGGA,182327.00,3509.84805,N,10632.14105,W,2,12,0.64,1715.9,M,-23.9,M,,0000*48
Received Message:KG5VBY  5947/$GNGGA,182337.00,3509.84775,N,10632.14119,W,2,12,0.64,1715.1,M,-23.9,M,,0000*44
Received Message:KG5VBY  5948/$GNGGA,182347.00,3509.84743,N,10632.14150,W,2,12,0.68,1715.0,M,-23.9,M,,0000*46
Received Message:KG5VBY  5949/$GNGGA,182357.00,3509.84746,N,10632.14148,W,2,12,0.68,1715.4,M,-23.9,M,,0000*4F
Received Message:KG5VBY  5950/$GNGGA,182407.00,3509.84750,N,10632.14138,W,2,12,0.68,1715.8,M,-23.9,M,,0000*41
Received Message:KG5VBY  5951/$GNGGA,182417.00,3509.84761,N,10632.14138,W,2,12,0.68,1715.4,M,-23.9,M,,0000*4E
Received Message:KG5VBY  5952/$GNGGA,182427.00,3509.84771,N,10632.14162,W,2,12,0.73,1715.9,M,-23.9,M,,0000*44
Received Message:KG5VBY  5953/$GNGGA,182437.00,3509.84790,N,10632.14189,W,2,12,0.65,1716.2,M,-23.9,M,,0000*40
Received Message:KG5VBY  5954/$GNGGA,182447.00,3509.84775,N,10632.14232,W,2,12,0.68,1716.8,M,-23.9,M,,0000*48
Received Message:KG5VBY  5955/$GNGGA,182457.00,3509.84759,N,10632.14255,W,2,12,0.78,1716.3,M,-23.9,M,,0000*4C
Received Message:KG5VBY  5956/$GNGGA,182507.00,3509.84773,N,10632.14270,W,2,12,0.64,1715.5,M,-23.9,M,,0000*4F
Received Message:KG5VBY  5957/$GNGGA,182517.00,3509.84761,N,10632.14289,W,2,12,0.64,1715.8,M,-23.9,M,,0000*46
Received Message:KG5VBY  5958/$GNGGA,182527.00,3509.84737,N,10632.14322,W,2,12,0.63,1716.9,M,-23.9,M,,0000*43
Received Message:KG5VBY  5959/$GNGGA,182537.00,3509.84700,N,10632.14343,W,2,12,0.65,1717.5,M,-23.9,M,,0000*4A
Received Message:KG5VBY  5960/$GNGGA,182547.00,3509.84679,N,10632.14315,W,2,12,0.64,1718.8,M,-23.9,M,,0000*42
Received Message:KG5VBY  5961/$GNGGA,182557.00,3509.84691,N,10632.14304,W,2,12,0.67,1718.6,M,-23.9,M,,0000*48
Received Message:KG5VBY  5962/$GNGGA,182607.00,3509.84716,N,10632.14318,W,2,12,0.67,1718.7,M,-23.9,M,,0000*4C
Received Message:KG5VBY  5963/$GNGGA,182617.00,3509.84730,N,10632.14331,W,2,12,0.66,1719.0,M,-23.9,M,,0000*45
Received Message:KG5VBY  5964/$GNGGA,182627.00,3509.84747,N,10632.14313,W,2,12,0.68,1719.0,M,-23.9,M,,0000*48
Received Message:KG5VBY  5965/$GNGGA,182637.00,3509.84764,N,10632.14309,W,2,12,0.66,1718.8,M,-23.9,M,,0000*44
Received Message:KG5VBY  5966/$GNGGA,182647.00,3509.84788,N,10632.14280,W,2,12,0.68,1718.8,M,-23.9,M,,0000*4F
Received Message:KG5VBY  5967/$GNGGA,182657.00,3509.84802,N,10632.14243,W,2,12,0.68,1718.2,M,-23.9,M,,0000*46
Received Message:KG5VBY  5968/$GNGGA,182707.00,3509.84808,N,10632.14216,W,2,12,0.67,1717.3,M,-23.9,M,,0000*49
Received Message:KG5VBY  5969/$GNGGA,182717.00,3509.84807,N,10632.14203,W,2,12,0.73,1717.1,M,-23.9,M,,0000*44
Received Message:KG5VBY  5970/$GNGGA,182727.00,3509.84809,N,10632.14185,W,2,12,0.64,1717.4,M,-23.9,M,,0000*47
Received Message:KG5VBY  5971/$GNGGA,182737.00,3509.84791,N,10632.14165,W,2,12,0.64,1717.9,M,-23.9,M,,0000*4B
Received Message:KG5VBY  5972/$GNGGA,182747.00,3509.84761,N,10632.14151,W,2,12,0.67,1718.2,M,-23.9,M,,0000*43
Received Message:KG5VBY  5973/$GNGGA,182757.00,3509.84741,N,10632.14153,W,2,12,0.65,1718.0,M,-23.9,M,,0000*42
Received Message:KG5VBY  5974/$GNGGA,182807.00,3509.84754,N,10632.14171,W,2,12,0.68,1716.7,M,-23.9,M,,0000*48
Received Message:KG5VBY  5975/$GNGGA,182817.00,3509.84740,N,10632.14199,W,2,12,0.65,1717.1,M,-23.9,M,,0000*40
Received Message:KG5VBY  5976/$GNGGA,182827.00,3509.84738,N,10632.14182,W,2,12,0.71,1716.7,M,-23.9,M,,0000*44
Received Message:KG5VBY  5977/$GNGGA,182837.00,3509.84759,N,10632.14162,W,2,12,0.68,1716.6,M,-23.9,M,,0000*45
Received Message:KG5VBY  5978/$GNGGA,182847.00,3509.84750,N,10632.14166,W,2,12,0.69,1717.0,M,-23.9,M,,0000*49
Received Message:KG5VBY  5979/$GNGGA,182857.00,3509.84741,N,10632.14183,W,2,12,0.73,1716.5,M,-23.9,M,,0000*4C
Received Message:KG5VBY  5980/$GNGGA,182907.00,3509.84733,N,10632.14215,W,2,12,0.74,1717.7,M,-23.9,M,,0000*45
Received Message:KG5VBY  5981/$GNGGA,182917.00,3509.84725,N,10632.14271,W,2,12,0.79,1719.2,M,-23.9,M,,0000*47
Received Message:KG5VBY  5982/$GNGGA,182927.00,3509.84730,N,10632.14261,W,2,12,0.73,1718.5,M,-23.9,M,,0000*4D
Received Message:KG5VBY  5983/$GNGGA,182937.00,3509.84737,N,10632.14227,W,2,12,0.81,1718.1,M,-23.9,M,,0000*40
Received Message:KG5VBY  5984/$GNGGA,182947.00,3509.84749,N,10632.14210,W,2,12,0.81,1718.5,M,-23.9,M,,0000*4E
Received Message:KG5VBY  5985/$GNGGA,182957.00,3509.84809,N,10632.14213,W,2,12,0.67,1718.3,M,-23.9,M,,0000*49
Received Message:KG5VBY  5986/$GNGGA,183007.00,3509.84856,N,10632.14251,W,2,12,0.81,1717.8,M,-23.9,M,,0000*44
Received Message:KG5VBY  5987/$GNGGA,183017.00,3509.84882,N,10632.14261,W,2,12,0.81,1717.2,M,-23.9,M,,0000*45
Received Message:KG5VBY  5988/$GNGGA,183027.00,3509.84904,N,10632.14277,W,2,12,0.76,1717.2,M,-23.9,M,,0000*46
Received Message:KG5VBY  5989/$GNGGA,183037.00,3509.84885,N,10632.14263,W,2,12,0.76,1718.2,M,-23.9,M,,0000*45
Received Message:KG5VBY  5990/$GNGGA,183047.00,3509.84884,N,10632.14245,W,2,12,0.81,1719.1,M,-23.9,M,,0000*4D
Received Message:KG5VBY  5991/$GNGGA,183057.00,3509.84886,N,10632.14249,W,2,12,0.67,1719.8,M,-23.9,M,,0000*43
Received Message:KG5VBY  5992/$GNGGA,183107.00,3509.84924,N,10632.14255,W,2,12,0.67,1719.6,M,-23.9,M,,0000*4D
Received Message:KG5VBY  5993/$GNGGA,183117.00,3509.84952,N,10632.14252,W,2,12,0.67,1718.7,M,-23.9,M,,0000*4A
Received Message:KG5VBY  5994/$GNGGA,183127.00,3509.84989,N,10632.14233,W,2,12,0.67,1718.3,M,-23.9,M,,0000*4C
Received Message:KG5VBY  5995/$GNGGA,183137.00,3509.85013,N,10632.14228,W,2,12,0.71,1717.8,M,-23.9,M,,0000*4F
Received Message:KG5VBY  5996/$GNGGA,183147.00,3509.85049,N,10632.14205,W,2,12,0.75,1717.3,M,-23.9,M,,0000*47
Received Message:KG5VBY  5997/$GNGGA,183157.00,3509.85052,N,10632.14199,W,2,12,0.75,1717.3,M,-23.9,M,,0000*4A
Received Message:KG5VBY  5998/$GNGGA,183207.00,3509.85046,N,10632.14154,W,2,12,0.71,1717.1,M,-23.9,M,,0000*4E
Received Message:KG5VBY  5999/$GNGGA,183217.00,3509.85059,N,10632.14084,W,2,12,0.71,1716.7,M,-23.9,M,,0000*4A
Received Message:KG5VBY  6000/$GNGGA,183227.00,3509.85041,N,10632.14080,W,2,12,0.69,1716.1,M,-23.9,M,,0000*4B
Received Message:KG5VBY  6001/$GNGGA,183237.00,3509.84967,N,10632.14060,W,2,12,0.68,1717.3,M,-23.9,M,,0000*4A
Received Message:KG5VBY  6002/$GNGGA,183247.00,3509.84917,N,10632.14016,W,2,12,0.68,1719.0,M,-23.9,M,,0000*46
Received Message:KG5VBY  6003/$GNGGA,183257.00,3509.84879,N,10632.13970,W,2,12,0.71,1720.1,M,-23.9,M,,0000*43
Received Message:KG5VBY  6004/$GNGGA,183307.00,3509.84861,N,10632.13908,W,2,12,0.72,1721.3,M,-23.9,M,,0000*41
Received Message:KG5VBY  6005/$GNGGA,183317.00,3509.84762,N,10632.13958,W,2,12,0.72,1721.9,M,-23.9,M,,0000*43
Received Message:KG5VBY  6006/$GNGGA,183327.00,3509.84770,N,10632.13983,W,2,12,0.72,1720.2,M,-23.9,M,,0000*4F
Received Message:KG5VBY  6007/$GNGGA,183337.00,3509.84822,N,10632.14003,W,2,12,0.72,1719.6,M,-23.9,M,,0000*4E
Received Message:KG5VBY  6008/$GNGGA,183347.00,3509.84841,N,10632.14080,W,2,12,0.72,1719.7,M,-23.9,M,,0000*46
Received Message:KG5VBY  6009/$GNGGA,183357.00,3509.84808,N,10632.14165,W,2,12,0.68,1720.8,M,-23.9,M,,0000*4E
Received Message:KG5VBY  6010/$GNGGA,183407.00,3509.84776,N,10632.14249,W,2,12,0.69,1721.2,M,-23.9,M,,0000*4D
Received Message:KG5VBY  6011/$GNGGA,183417.00,3509.84758,N,10632.14316,W,2,12,0.69,1722.4,M,-23.9,M,,0000*4E
Received Message:KG5VBY  6012/$GNGGA,183427.00,3509.84730,N,10632.14344,W,2,12,0.65,1723.5,M,-23.9,M,,0000*48
Received Message:KG5VBY  6013/$GNGGA,183437.00,3509.84733,N,10632.14362,W,2,12,0.65,1723.3,M,-23.9,M,,0000*48
Received Message:KG5VBY  6014/$GNGGA,183447.00,3509.84764,N,10632.14388,W,2,12,0.65,1721.9,M,-23.9,M,,0000*41
Received Message:KG5VBY  6015/$GNGGA,183457.00,3509.84778,N,10632.14401,W,2,12,0.67,1721.1,M,-23.9,M,,0000*41
Received Message:KG5VBY  6016/$GNGGA,183507.00,3509.84806,N,10632.14456,W,2,12,0.68,1720.0,M,-23.9,M,,0000*4E
Received Message:KG5VBY  6017/$GNGGA,183517.00,3509.84792,N,10632.14422,W,2,12,0.68,1719.4,M,-23.9,M,,0000*40
Received Message:KG5VBY  6018/$GNGGA,183527.00,3509.84727,N,10632.14296,W,2,12,0.68,1721.8,M,-23.9,M,,0000*43
Received Message:KG5VBY  6019/$GNGGA,183537.00,3509.84704,N,10632.14212,W,2,12,0.68,1724.1,M,-23.9,M,,0000*43
Received Message:KG5VBY  6020/$GNGGA,183547.00,3509.84695,N,10632.14157,W,2,12,0.82,1725.8,M,-23.9,M,,0000*43
Received Message:KG5VBY  6021/$GNGGA,183557.00,3509.84704,N,10632.14117,W,2,12,0.71,1726.8,M,-23.9,M,,0000*40
Received Message:KG5VBY  6022/$GNGGA,183607.00,3509.84708,N,10632.14064,W,2,12,0.65,1728.6,M,-23.9,M,,0000*4A
Received Message:KG5VBY  6023/$GNGGA,183617.00,3509.84740,N,10632.14083,W,2,12,0.68,1727.5,M,-23.9,M,,0000*4F
Received Message:KG5VBY  6024/$GNGGA,183628.00,3509.84767,N,10632.14076,W,2,12,0.72,1726.4,M,-23.9,M,,0000*47
Received Message:KG5VBY  6025/$GNGGA,183638.00,3509.84769,N,10632.14036,W,2,12,0.68,1726.3,M,-23.9,M,,0000*40
Received Message:KG5VBY  6026/$GNGGA,183648.00,3509.84758,N,10632.14051,W,2,12,0.68,1726.6,M,-23.9,M,,0000*41
Received Message:KG5VBY  6027/$GNGGA,183658.00,3509.84774,N,10632.14047,W,2,12,0.68,1726.4,M,-23.9,M,,0000*4B
Received Message:KG5VBY  6028/$GNGGA,183708.00,3509.84796,N,10632.14053,W,2,12,0.73,1725.8,M,-23.9,M,,0000*43
Received Message:KG5VBY  6029/$GNGGA,183718.00,3509.84824,N,10632.14046,W,2,12,0.68,1725.8,M,-23.9,M,,0000*4A
Received Message:KG5VBY  6030/$GNGGA,183728.00,3509.84813,N,10632.14055,W,2,12,0.68,1725.9,M,-23.9,M,,0000*4E
Received Message:KG5VBY  6031/$GNGGA,183738.00,3509.84755,N,10632.14007,W,2,12,0.68,1728.0,M,-23.9,M,,0000*41
Received Message:KG5VBY  6032/$GNGGA,183748.00,3509.84372,N,10632.13833,W,2,12,0.68,1726.6,M,-23.9,M,,0000*47
Received Message:KG5VBY  6033/$GNGGA,183758.00,3509.83863,N,10632.16377,W,2,12,0.65,1716.1,M,-23.9,M,,0000*4D
Received Message:KG5VBY  6034/$GNGGA,183808.00,3509.83846,N,10632.21428,W,2,12,0.68,1713.2,M,-23.9,M,,0000*42
Received Message:KG5VBY  6035/$GNGGA,183818.00,3509.88551,N,10632.22198,W,2,12,0.66,1714.2,M,-23.9,M,,0000*47
Received Message:KG5VBY  6036/$GNGGA,183828.00,3509.89606,N,10632.22248,W,2,12,0.71,1714.2,M,-23.9,M,,0000*4C
Received Message:KG5VBY  6037/$GNGGA,183838.00,3509.90294,N,10632.23002,W,2,12,0.70,1713.5,M,-23.9,M,,0000*46
Received Message:KG5VBY  6038/$GNGGA,183848.00,3509.93110,N,10632.30471,W,2,12,0.66,1708.9,M,-23.9,M,,0000*4E
Received Message:KG5VBY  6039/$GNGGA,183858.00,3509.97750,N,10632.40458,W,2,12,0.70,1706.6,M,-23.9,M,,0000*43
Received Message:KG5VBY  6040/$GNGGA,183908.00,3509.98823,N,10632.50473,W,2,12,0.68,1700.4,M,-23.9,M,,0000*46
Received Message:KG5VBY  6041/$GNGGA,183918.00,3509.98861,N,10632.52507,W,2,12,0.73,1699.3,M,-23.9,M,,0000*4D
Received Message:KG5VBY  6042/$GNGGA,183928.00,3510.03119,N,10632.53195,W,2,12,0.81,1699.6,M,-23.9,M,,0000*44
Received Message:KG5VBY  6043/$GNGGA,183938.00,3510.14022,N,10632.53149,W,2,12,0.68,1700.0,M,-23.9,M,,0000*4B
Received Message:KG5VBY  6044/$GNGGA,183948.00,3510.26681,N,10632.53148,W,2,12,0.66,1699.9,M,-23.9,M,,0000*45
Received Message:KG5VBY  6045/$GNGGA,183958.00,3510.38402,N,10632.53197,W,2,12,0.66,1700.4,M,-23.9,M,,0000*4C
Received Message:KG5VBY  6046/$GNGGA,184008.00,3510.44074,N,10632.53240,W,2,12,0.64,1698.8,M,-23.9,M,,0000*4E
Received Message:KG5VBY  6047/$GNGGA,184018.00,3510.44386,N,10632.53243,W,2,12,0.65,1698.3,M,-23.9,M,,0000*48
Received Message:KG5VBY  6051/$GNGGA,184058.00,3510.45665,N,10632.53286,W,2,12,0.59,1698.6,M,-23.9,M,,0000*46
Received Message:KG5VBY  6053/$GNGGA,184118.00,3510.45496,N,10632.75461,W,2,12,0.67,1687.0,M,-23.9,M,,0000*43
Received Message:KG5VBY  6055/$GNGGA,184138.00,3510.44609,N,10633.02247,W,2,12,0.64,1674.7,M,-23.9,M,,0000*4F
Received Message:KG5VBY  6056/$GNGGA,184148.00,3510.44567,N,10633.03991,W,2,12,0.61,1674.1,M,-23.9,M,,0000*41
Received Message:KG5VBY  6057/$GNGGA,184158.00,3510.44561,N,10633.03999,W,2,12,0.59,1674.0,M,-23.9,M,,0000*44
Received Message:KG5VBY  6058/$GNGGA,184208.00,3510.44517,N,10633.07475,W,2,12,0.58,1672.0,M,-23.9,M,,0000*4F
Received Message:KG5VBY  6059/$GNGGA,184218.00,3510.44553,N,10633.19491,W,2,12,0.61,1665.7,M,-23.9,M,,0000*40
Received Message:KG5VBY  6061/$GNGGA,184238.00,3510.45609,N,10633.49998,W,2,12,0.58,1650.7,M,-23.9,M,,0000*42
Received Message:KG5VBY  6080/$GNGGA,184548.00,3510.45938,N,10634.92427,W,2,12,0.61,1591.0,M,-23.9,M,,0000*44
Received Message:KG5VBY  6081/$GNGGA,184558.00,3510.46001,N,10634.93573,W,2,12,0.61,1591.0,M,-23.9,M,,0000*44
Received Message:KG5VBY  6082/$GNGGA,184608.00,3510.46299,N,10634.99528,W,2,12,0.61,1591.4,M,-23.9,M,,0000*41
Received Message:KG5VBY  6094/$GNGGA,184808.00,3509.18716,N,10635.32673,W,2,12,0.63,1591.2,M,-23.9,M,,0000*47
Received Message:KG5VBY  6098/$GNGGA,184848.00,3508.60645,N,10635.55498,W,2,12,0.60,1581.4,M,-23.9,M,,0000*48
Received Message:KG5VBY  6101/$GNGGA,184918.00,3508.33125,N,10635.99408,W,2,12,0.60,1568.4,M,-23.9,M,,0000*45
Received Message:KG5VBY  6104/$GNGGA,184948.00,3508.06997,N,10636.42538,W,2,12,0.61,1559.6,M,-23.9,M,,0000*41
Received Message:KG5VBY  6105/$GNGGA,184958.00,3507.97630,N,10636.57716,W,2,12,0.61,1557.9,M,-23.9,M,,0000*4E
Received Message:KG5VBY  6106/$GNGGA,185008.00,3507.88149,N,10636.73335,W,2,12,0.61,1556.0,M,-23.9,M,,0000*4F
Received Message:KG5VBY  6110/$GNGGA,185048.00,3507.44744,N,10637.30571,W,2,12,0.62,1548.9,M,-23.9,M,,0000*45
Received Message:KG5VBY  6111/$GNGGA,185058.00,3507.30185,N,10637.39473,W,2,12,0.62,1551.6,M,-23.9,M,,0000*41
Received Message:KG5VBY  6113/$GNGGA,185118.00,3506.98807,N,10637.51456,W,2,12,0.62,1553.6,M,-23.9,M,,0000*4F
Received Message:KG5VBY  6115/$GNGGA,185138.00,3506.65968,N,10637.63474,W,2,12,0.60,1544.9,M,-23.9,M,,0000*4D
Received Message:KG5VBY  6116/$GNGGA,185148.00,3506.49294,N,10637.70429,W,2,12,0.60,1547.9,M,-23.9,M,,0000*45
Received Message:KG5VBY  6117/$GNGGA,185158.00,3506.32749,N,10637.76823,W,2,12,0.60,1549.9,M,-23.9,M,,0000*43
Received Message:KG5VBY  6119/$GNGGA,185218.00,3505.98591,N,10637.89324,W,2,12,0.62,1542.8,M,-23.9,M,,0000*44
Received Message:KG5VBY  6125/$GNGGA,185319.00,3504.98994,N,10638.19737,W,2,12,0.62,1548.0,M,-23.9,M,,0000*4E
Received Message:KG5VBY  6126/$GNGGA,185329.00,3504.84187,N,10638.22591,W,2,12,0.63,1550.6,M,-23.9,M,,0000*42
Received Message:KG5VBY  6130/$GNGGA,185409.00,3504.32820,N,10638.39546,W,2,12,0.63,1533.4,M,-23.9,M,,0000*49
Received Message:KG5VBY  6131/$GNGGA,185419.00,3504.19741,N,10638.37885,W,2,12,0.63,1537.0,M,-23.9,M,,0000*45
Received Message:KG5VBY  6132/$GNGGA,185429.00,3504.07440,N,10638.36335,W,2,12,0.63,1536.9,M,-24.0,M,,0000*4C
Received Message:KG5VBY  6133/$GNGGA,185439.00,3503.94363,N,10638.34647,W,2,12,0.63,1534.5,M,-24.0,M,,0000*4A
Received Message:KG5VBY  6134/$GNGGA,185449.00,3503.80084,N,10638.32802,W,2,12,0.64,1533.9,M,-24.0,M,,0000*47
Received Message:KG5VBY  6135/$GNGGA,185459.00,3503.65975,N,10638.30792,W,2,12,0.63,1538.8,M,-24.0,M,,0000*43
Received Message:KG5VBY  6136/$GNGGA,185509.00,3503.50161,N,10638.28958,W,2,12,0.66,1540.1,M,-24.0,M,,0000*4E
Received Message:KG5VBY  6138/$GNGGA,185529.00,3503.15755,N,10638.28016,W,2,12,0.63,1539.2,M,-24.0,M,,0000*47
Received Message:KG5VBY  6140/$GNGGA,185549.00,3502.79831,N,10638.28679,W,2,12,0.67,1541.3,M,-24.0,M,,0000*42
Received Message:KG5VBY  6141/$GNGGA,185559.00,3502.61522,N,10638.28988,W,2,12,0.63,1543.2,M,-24.0,M,,0000*43
Received Message:KG5VBY  6146/$GNGGA,185649.00,3501.75167,N,10638.29293,W,2,12,0.69,1560.7,M,-24.0,M,,0000*4C
Received Message:KG5VBY  6148/$GNGGA,185709.00,3501.41240,N,10638.29893,W,2,12,0.68,1573.2,M,-24.0,M,,0000*44
Received Message:KG5VBY  6150/$GNGGA,185729.00,3501.06840,N,10638.34263,W,2,12,0.71,1580.6,M,-24.0,M,,0000*46
Received Message:KG5VBY  6153/$GNGGA,185759.00,3500.58048,N,10638.53741,W,2,12,0.69,1555.7,M,-24.0,M,,0000*4F
Received Message:KG5VBY  6158/$GNGGA,185849.00,3459.75384,N,10638.83001,W,2,12,0.70,1557.8,M,-24.0,M,,0000*4B
Received Message:KG5VBY  6159/$GNGGA,185859.00,3459.60886,N,10638.88129,W,2,12,0.70,1568.2,M,-24.0,M,,0000*41
Received Message:KG5VBY  6160/$GNGGA,185909.00,3459.46508,N,10638.93222,W,2,12,0.71,1578.1,M,-24.0,M,,0000*4B
Received Message:KG5VBY  6161/$GNGGA,185919.00,3459.31655,N,10638.98478,W,2,12,0.70,1581.3,M,-24.0,M,,0000*46
Received Message:KG5VBY  6164/$GNGGA,185949.00,3458.80575,N,10639.14778,W,2,12,0.83,1552.8,M,-24.0,M,,0000*46
Received Message:KG5VBY  6169/$GNGGA,190039.00,3457.94070,N,10639.40411,W,2,12,0.76,1534.8,M,-24.0,M,,0000*41
Received Message:KG5VBY  6170/$GNGGA,190049.00,3457.75857,N,10639.45816,W,2,12,0.76,1534.0,M,-24.0,M,,0000*42
Received Message:KG5VBY  6171/$GNGGA,190059.00,3457.57931,N,10639.51112,W,2,12,0.76,1534.3,M,-24.0,M,,0000*49
Received Message:KG5VBY  6172/$GNGGA,190109.00,3457.40296,N,10639.57198,W,2,12,0.70,1535.9,M,-24.0,M,,0000*44
Received Message:KG5VBY  6173/$GNGGA,190119.00,3457.25215,N,10639.69700,W,2,12,0.70,1536.0,M,-24.0,M,,0000*4D
Received Message:KG5VBY  6175/$GNGGA,190139.00,3457.10977,N,10640.10583,W,2,12,0.71,1512.8,M,-24.0,M,,0000*40
Received Message:KG5VBY  6176/$GNGGA,190149.00,3457.08037,N,10640.33233,W,2,12,0.69,1505.6,M,-24.0,M,,0000*4F
Received Message:KG5VBY  6177/$GNGGA,190159.00,3457.05090,N,10640.55621,W,2,12,0.69,1502.5,M,-24.0,M,,0000*4D
Received Message:KG5VBY  6178/$GNGGA,190209.00,3457.02453,N,10640.77292,W,2,12,0.71,1503.9,M,-24.0,M,,0000*4F
Received Message:KG5VBY  6179/$GNGGA,190219.00,3456.99772,N,10640.97945,W,2,12,0.71,1504.0,M,-24.0,M,,0000*4C
Received Message:KG5VBY  6180/$GNGGA,190229.00,3456.97025,N,10641.18785,W,2,12,0.80,1503.8,M,-24.0,M,,0000*41
Received Message:KG5VBY  6181/$GNGGA,190239.00,3456.94211,N,10641.40195,W,2,12,0.80,1504.9,M,-24.0,M,,0000*4A
Received Message:KG5VBY  6182/$GNGGA,190249.00,3456.91353,N,10641.61910,W,2,12,0.80,1503.4,M,-24.0,M,,0000*43
Received Message:KG5VBY  6183/$GNGGA,190259.00,3456.87433,N,10641.82968,W,2,12,0.69,1502.4,M,-24.0,M,,0000*40
Received Message:KG5VBY  6184/$GNGGA,190309.00,3456.78252,N,10642.01083,W,2,12,0.69,1503.2,M,-24.0,M,,0000*46
Received Message:KG5VBY  6185/$GNGGA,190319.00,3456.65199,N,10642.14296,W,2,11,0.92,1504.5,M,-24.0,M,,0000*4A
Received Message:KG5VBY  6186/$GNGGA,190329.00,3456.51445,N,10642.27954,W,2,12,0.86,1507.2,M,-24.0,M,,0000*4D
Received Message:KG5VBY  6189/$GNGGA,190359.00,3456.13771,N,10642.75459,W,2,12,0.72,1516.7,M,-24.0,M,,0000*41
Received Message:KG5VBY  6190/$GNGGA,190409.00,3456.00091,N,10642.89579,W,2,12,0.68,1523.1,M,-24.0,M,,0000*43
Received Message:KG5VBY  6191/$GNGGA,190419.00,3455.84262,N,10643.00353,W,2,12,0.69,1529.9,M,-24.1,M,,0000*4F
Received Message:KG5VBY  6192/$GNGGA,190429.00,3455.67088,N,10643.07230,W,2,12,0.69,1537.5,M,-24.1,M,,0000*47
Received Message:KG5VBY  6193/$GNGGA,190439.00,3455.49442,N,10643.12167,W,2,12,0.74,1546.3,M,-24.1,M,,0000*41
Received Message:KG5VBY  6194/$GNGGA,190449.00,3455.31672,N,10643.17138,W,2,12,0.69,1553.7,M,-24.1,M,,0000*4B
Received Message:KG5VBY  6195/$GNGGA,190459.00,3455.13785,N,10643.22165,W,2,12,0.69,1557.6,M,-24.1,M,,0000*48
Received Message:KG5VBY  6196/$GNGGA,190509.00,3454.96006,N,10643.27168,W,2,12,0.67,1557.9,M,-24.1,M,,0000*45
Received Message:KG5VBY  6198/$GNGGA,190529.00,3454.60347,N,10643.37070,W,2,12,0.67,1541.3,M,-24.1,M,,0000*4C
Received Message:KG5VBY  6199/$GNGGA,190539.00,3454.42745,N,10643.41996,W,2,12,0.66,1539.7,M,-24.1,M,,0000*41
Received Message:KG5VBY  6201/$GNGGA,190559.00,3454.07290,N,10643.51588,W,2,12,0.70,1539.0,M,-24.1,M,,0000*49
Received Message:KG5VBY  6202/$GNGGA,190609.00,3453.89527,N,10643.56479,W,2,12,0.66,1536.7,M,-24.1,M,,0000*42
Received Message:KG5VBY  6203/$GNGGA,190619.00,3453.71581,N,10643.60454,W,2,12,0.72,1530.6,M,-24.1,M,,0000*40
Received Message:KG5VBY  6204/$GNGGA,190629.00,3453.53605,N,10643.63275,W,2,12,0.76,1528.6,M,-24.1,M,,0000*47
Received Message:KG5VBY  6205/$GNGGA,190639.00,3453.35661,N,10643.65565,W,2,12,0.78,1532.5,M,-24.1,M,,0000*42
Received Message:KG5VBY  6206/$GNGGA,190649.00,3453.17554,N,10643.68022,W,2,12,0.77,1533.2,M,-24.1,M,,0000*42
Received Message:KG5VBY  6207/$GNGGA,190659.00,3452.99701,N,10643.72315,W,2,12,0.73,1535.5,M,-24.1,M,,0000*4F
Received Message:KG5VBY  6208/$GNGGA,190709.00,3452.82186,N,10643.78644,W,2,12,0.71,1536.3,M,-24.1,M,,0000*44
Received Message:KG5VBY  6209/$GNGGA,190719.00,3452.65371,N,10643.86922,W,2,12,0.62,1534.8,M,-24.1,M,,0000*43
Received Message:KG5VBY  6210/$GNGGA,190729.00,3452.48743,N,10643.96061,W,2,12,0.63,1533.3,M,-24.1,M,,0000*48
Received Message:KG5VBY  6211/$GNGGA,190739.00,3452.32255,N,10644.05123,W,2,12,0.63,1533.1,M,-24.1,M,,0000*4E
Received Message:KG5VBY  6212/$GNGGA,190749.00,3452.15659,N,10644.14301,W,2,12,0.63,1527.9,M,-24.1,M,,0000*4B
Received Message:KG5VBY  6213/$GNGGA,190759.00,3451.99260,N,10644.23362,W,2,12,0.62,1527.9,M,-24.1,M,,0000*43
Received Message:KG5VBY  6214/$GNGGA,190809.00,3451.82792,N,10644.32496,W,2,12,0.66,1528.6,M,-24.1,M,,0000*43
Received Message:KG5VBY  6215/$GNGGA,190819.00,3451.66197,N,10644.41618,W,2,12,0.62,1528.8,M,-24.1,M,,0000*41
Received Message:KG5VBY  6216/$GNGGA,190829.00,3451.49830,N,10644.50690,W,2,12,0.63,1532.5,M,-24.1,M,,0000*4C
Received Message:KG5VBY  6217/$GNGGA,190839.00,3451.33211,N,10644.59913,W,2,12,0.63,1530.8,M,-24.1,M,,0000*4B
Received Message:KG5VBY  6218/$GNGGA,190849.00,3451.16644,N,10644.69028,W,2,12,0.63,1529.5,M,-24.1,M,,0000*48
Received Message:KG5VBY  6219/$GNGGA,190859.00,3450.99943,N,10644.78218,W,2,12,0.62,1530.2,M,-24.1,M,,0000*48
Received Message:KG5VBY  6220/$GNGGA,190909.00,3450.82891,N,10644.87174,W,2,12,0.68,1523.9,M,-24.1,M,,0000*42
Received Message:KG5VBY  6221/$GNGGA,190920.00,3450.63572,N,10644.95941,W,1,12,0.75,1523.0,M,-24.1,M,,*4D
Received Message:KG5VBY  6222/$GNGGA,190930.00,3450.45519,N,10645.02840,W,2,12,0.67,1524.2,M,-24.1,M,,0000*4F
Received Message:KG5VBY  6223/$GNGGA,190940.00,3450.27273,N,10645.09162,W,2,12,0.67,1523.6,M,-24.1,M,,0000*46
Received Message:KG5VBY  6224/$GNGGA,190950.00,3450.09300,N,10645.16167,W,2,12,0.68,1522.4,M,-24.1,M,,0000*49
Received Message:KG5VBY  6225/$GNGGA,191000.00,3449.91443,N,10645.23762,W,2,12,0.70,1521.2,M,-24.1,M,,0000*44
Received Message:KG5VBY  6226/$GNGGA,191010.00,3449.73532,N,10645.31385,W,2,12,0.70,1520.4,M,-24.1,M,,0000*47
Received Message:KG5VBY  6227/$GNGGA,191020.00,3449.55635,N,10645.39049,W,2,12,0.72,1515.0,M,-24.1,M,,0000*4F
Received Message:KG5VBY  6228/$GNGGA,191030.00,3449.38092,N,10645.46535,W,2,12,0.67,1517.6,M,-24.1,M,,0000*48
Received Message:KG5VBY  6229/$GNGGA,191040.00,3449.20245,N,10645.54078,W,2,12,0.71,1517.3,M,-24.1,M,,0000*43
Received Message:KG5VBY  6230/$GNGGA,191050.00,3449.02257,N,10645.61614,W,2,12,0.68,1514.4,M,-24.1,M,,0000*47
Received Message:KG5VBY  6231/$GNGGA,191100.00,3448.84538,N,10645.69372,W,2,12,0.71,1513.6,M,-24.1,M,,0000*42
Received Message:KG5VBY  6232/$GNGGA,191110.00,3448.66803,N,10645.76973,W,2,12,0.61,1515.1,M,-24.1,M,,0000*4F
Received Message:KG5VBY  6233/$GNGGA,191120.00,3448.48908,N,10645.84570,W,2,12,0.63,1516.0,M,-24.1,M,,0000*48
Received Message:KG5VBY  6234/$GNGGA,191130.00,3448.30966,N,10645.92227,W,2,12,0.60,1515.7,M,-24.1,M,,0000*4B
Received Message:KG5VBY  6235/$GNGGA,191140.00,3448.13221,N,10645.99978,W,2,12,0.60,1516.2,M,-24.1,M,,0000*49
Received Message:KG5VBY  6236/$GNGGA,191150.00,3447.95303,N,10646.07659,W,2,12,0.61,1513.6,M,-24.2,M,,0000*43
Received Message:KG5VBY  6237/$GNGGA,191200.00,3447.77396,N,10646.15398,W,2,12,0.61,1509.5,M,-24.2,M,,0000*46
Received Message:KG5VBY  6238/$GNGGA,191210.00,3447.59632,N,10646.23004,W,2,12,0.60,1506.1,M,-24.2,M,,0000*49
Received Message:KG5VBY  6239/$GNGGA,191220.00,3447.41957,N,10646.30563,W,2,12,0.61,1507.8,M,-24.2,M,,0000*40
Received Message:KG5VBY  6240/$GNGGA,191230.00,3447.23982,N,10646.38261,W,2,12,0.75,1503.6,M,-24.2,M,,0000*4F
Received Message:KG5VBY  6241/$GNGGA,191240.00,3447.06260,N,10646.45893,W,2,12,0.61,1504.3,M,-24.2,M,,0000*42
Received Message:KG5VBY  6242/$GNGGA,191250.00,3446.88527,N,10646.53422,W,2,12,0.60,1507.8,M,-24.2,M,,0000*48
Received Message:KG5VBY  6243/$GNGGA,191300.00,3446.70634,N,10646.61062,W,2,12,0.61,1510.3,M,-24.2,M,,0000*47
Received Message:KG5VBY  6244/$GNGGA,191310.00,3446.52750,N,10646.68715,W,2,12,0.61,1511.7,M,-24.2,M,,0000*4E
Received Message:KG5VBY  6245/$GNGGA,191320.00,3446.34797,N,10646.76307,W,2,12,0.60,1510.3,M,-24.2,M,,0000*4A
Received Message:KG5VBY  6246/$GNGGA,191330.00,3446.16891,N,10646.83715,W,2,12,0.60,1508.1,M,-24.2,M,,0000*44
Received Message:KG5VBY  6247/$GNGGA,191340.00,3445.99088,N,10646.91312,W,2,12,0.60,1506.2,M,-24.2,M,,0000*4A
Received Message:KG5VBY  6248/$GNGGA,191350.00,3445.81146,N,10646.98918,W,2,12,0.60,1503.1,M,-24.2,M,,0000*4E
Received Message:KG5VBY  6249/$GNGGA,191400.00,3445.63356,N,10647.06575,W,2,12,0.60,1503.1,M,-24.2,M,,0000*42
Received Message:KG5VBY  6250/$GNGGA,191410.00,3445.45539,N,10647.14087,W,2,12,0.60,1503.2,M,-24.2,M,,0000*40
Received Message:KG5VBY  6251/$GNGGA,191420.00,3445.27223,N,10647.20186,W,2,12,0.60,1502.6,M,-24.2,M,,0000*49
Received Message:KG5VBY  6252/$GNGGA,191430.00,3445.08593,N,10647.23931,W,2,12,0.60,1502.7,M,-24.2,M,,0000*4F
Received Message:KG5VBY  6253/$GNGGA,191440.00,3444.89890,N,10647.25465,W,2,12,0.60,1504.0,M,-24.2,M,,0000*45
Received Message:KG5VBY  6254/$GNGGA,191450.00,3444.71516,N,10647.25653,W,2,12,0.61,1495.7,M,-24.2,M,,0000*48
Received Message:KG5VBY  6255/$GNGGA,191500.00,3444.52867,N,10647.25854,W,2,12,0.60,1495.3,M,-24.2,M,,0000*4A
Received Message:KG5VBY  6256/$GNGGA,191510.00,3444.33689,N,10647.26024,W,2,12,0.61,1492.5,M,-24.2,M,,0000*4E
Received Message:KG5VBY  6257/$GNGGA,191520.00,3444.14813,N,10647.26254,W,2,12,0.61,1489.4,M,-24.2,M,,0000*4B
Received Message:KG5VBY  6258/$GNGGA,191530.00,3443.96774,N,10647.26446,W,2,12,0.62,1492.7,M,-24.2,M,,0000*46
Received Message:KG5VBY  6259/$GNGGA,191540.00,3443.78169,N,10647.26637,W,2,12,0.63,1490.2,M,-24.2,M,,0000*49
Received Message:KG5VBY  6260/$GNGGA,191550.00,3443.59491,N,10647.27186,W,2,12,0.62,1488.2,M,-24.2,M,,0000*4D
Received Message:KG5VBY  6261/$GNGGA,191600.00,3443.40941,N,10647.28817,W,2,12,0.60,1489.4,M,-24.2,M,,0000*48
Received Message:KG5VBY  6262/$GNGGA,191610.00,3443.22428,N,10647.31542,W,2,12,0.62,1491.9,M,-24.2,M,,0000*4C
Received Message:KG5VBY  6263/$GNGGA,191620.00,3443.04020,N,10647.35314,W,2,12,0.60,1492.8,M,-24.2,M,,0000*46
Received Message:KG5VBY  6264/$GNGGA,191630.00,3442.85659,N,10647.39462,W,2,12,0.64,1493.1,M,-24.2,M,,0000*41
Received Message:KG5VBY  6265/$GNGGA,191640.00,3442.67648,N,10647.43706,W,2,12,0.61,1500.3,M,-24.2,M,,0000*4A
Received Message:KG5VBY  6266/$GNGGA,191650.00,3442.49793,N,10647.47777,W,2,12,0.61,1506.7,M,-24.2,M,,0000*40
Received Message:KG5VBY  6267/$GNGGA,191700.00,3442.31178,N,10647.52035,W,2,12,0.60,1500.7,M,-24.2,M,,0000*4A
Received Message:KG5VBY  6268/$GNGGA,191710.00,3442.12727,N,10647.56021,W,2,12,0.62,1496.9,M,-24.2,M,,0000*45
Received Message:KG5VBY  6269/$GNGGA,191720.00,3441.94301,N,10647.59003,W,2,12,0.60,1497.1,M,-24.2,M,,0000*4F
Received Message:KG5VBY  6270/$GNGGA,191730.00,3441.75870,N,10647.61095,W,2,12,0.61,1500.5,M,-24.2,M,,0000*42
Received Message:KG5VBY  6271/$GNGGA,191740.00,3441.57288,N,10647.63103,W,2,12,0.61,1498.9,M,-24.2,M,,0000*48
Received Message:KG5VBY  6272/$GNGGA,191750.00,3441.38645,N,10647.64921,W,2,12,0.60,1493.9,M,-24.2,M,,0000*40
Received Message:KG5VBY  6273/$GNGGA,191800.00,3441.20160,N,10647.66889,W,2,12,0.60,1493.4,M,-24.2,M,,0000*4F
Received Message:KG5VBY  6274/$GNGGA,191810.00,3441.01527,N,10647.68939,W,2,12,0.60,1491.3,M,-24.2,M,,0000*4B
Received Message:KG5VBY  6275/$GNGGA,191820.00,3440.83092,N,10647.70960,W,2,12,0.60,1493.2,M,-24.2,M,,0000*4E
Received Message:KG5VBY  6276/$GNGGA,191830.00,3440.64494,N,10647.72973,W,2,12,0.60,1494.8,M,-24.2,M,,0000*49
Received Message:KG5VBY  6277/$GNGGA,191840.00,3440.45918,N,10647.75005,W,2,12,0.60,1496.2,M,-24.2,M,,0000*43
Received Message:KG5VBY  6278/$GNGGA,191850.00,3440.27485,N,10647.77065,W,2,12,0.60,1499.0,M,-24.2,M,,0000*46
Received Message:KG5VBY  6279/$GNGGA,191900.00,3440.08899,N,10647.79069,W,2,12,0.60,1500.8,M,-24.2,M,,0000*45
Received Message:KG5VBY  6280/$GNGGA,191910.00,3439.90342,N,10647.81122,W,2,12,0.60,1501.9,M,-24.3,M,,0000*4E
Received Message:KG5VBY  6281/$GNGGA,191920.00,3439.71762,N,10647.82749,W,2,12,0.60,1501.9,M,-24.3,M,,0000*4C
Received Message:KG5VBY  6282/$GNGGA,191930.00,3439.53220,N,10647.80452,W,2,12,0.60,1500.9,M,-24.3,M,,0000*44
Received Message:KG5VBY  6283/$GNGGA,191940.00,3439.35084,N,10647.75703,W,2,12,0.60,1501.9,M,-24.3,M,,0000*43
Received Message:KG5VBY  6284/$GNGGA,191950.00,3439.16844,N,10647.70747,W,2,12,0.61,1501.3,M,-24.3,M,,0000*49
Received Message:KG5VBY  6285/$GNGGA,192000.00,3438.98874,N,10647.64192,W,2,12,0.62,1493.6,M,-24.3,M,,0000*45
Received Message:KG5VBY  6286/$GNGGA,192010.00,3438.81729,N,10647.55611,W,2,12,0.61,1489.2,M,-24.3,M,,0000*49
Received Message:KG5VBY  6287/$GNGGA,192020.00,3438.65336,N,10647.45027,W,2,12,0.62,1486.2,M,-24.3,M,,0000*44
Received Message:KG5VBY  6288/$GNGGA,192030.00,3438.49617,N,10647.32793,W,2,12,0.61,1482.7,M,-24.3,M,,0000*47
Received Message:KG5VBY  6289/$GNGGA,192040.00,3438.34065,N,10647.20489,W,2,12,0.67,1479.4,M,-24.3,M,,0000*43
Received Message:KG5VBY  6294/$GNGGA,192130.00,3437.46937,N,10647.01210,W,2,12,0.62,1467.4,M,-24.3,M,,0000*4E
Received Message:KG5VBY  6296/$GNGGA,192150.00,3437.10580,N,10647.07763,W,2,12,0.62,1465.0,M,-24.3,M,,0000*4A
Received Message:KG5VBY  6297/$GNGGA,192200.00,3436.92447,N,10647.11046,W,2,12,0.62,1467.2,M,-24.3,M,,0000*4A
Received Message:KG5VBY  6298/$GNGGA,192210.00,3436.74449,N,10647.14313,W,2,12,0.62,1471.4,M,-24.3,M,,0000*4A
Received Message:KG5VBY  6299/$GNGGA,192220.00,3436.56269,N,10647.17756,W,2,12,0.61,1472.3,M,-24.3,M,,0000*4C
Received Message:KG5VBY  6300/$GNGGA,192230.00,3436.37980,N,10647.21155,W,2,12,0.61,1471.5,M,-24.3,M,,0000*43
Received Message:KG5VBY  6301/$GNGGA,192240.00,3436.19814,N,10647.24449,W,2,12,0.61,1472.2,M,-24.3,M,,0000*4D
Received Message:KG5VBY  6302/$GNGGA,192250.00,3436.01640,N,10647.27728,W,2,12,0.61,1473.7,M,-24.3,M,,0000*49
Received Message:KG5VBY  6303/$GNGGA,192300.00,3435.83521,N,10647.30770,W,2,12,0.61,1476.9,M,-24.3,M,,0000*40
